City_ID,City,Lat,Lng,Max Temp,Humidity,Cloudiness,Wind Speed,Country,Date
0,kuacjok,8.3002,27.9903,74.07,87,100,3.33,SS,1697671616
1,kirakira,-10.4544,161.9205,85.35,69,83,10.04,SB,1697671519
2,sambava,-14.2667,50.1667,72.28,94,23,5.66,MG,1697671616
3,tura,25.5198,90.2201,67.05,90,0,3.02,IN,1697671616
4,pitkyaranta,61.5734,31.4792,35.51,80,96,6.35,RU,1697671616
5,ust-nera,64.5667,143.2,2.21,91,100,4.0,RU,1697671616
6,happy valley-goose bay,53.3168,-60.3315,39.51,75,20,4.61,CA,1697671531
7,nemuro,43.3236,145.575,59.31,84,100,22.06,JP,1697671616
8,igarka,67.4667,86.5833,38.8,98,100,15.46,RU,1697671616
9,qamdo,31.1667,97.2333,22.95,80,39,5.64,CN,1697671617
10,yellowknife,62.456,-114.3525,44.42,100,100,8.05,CA,1697671617
11,port elizabeth,-33.918,25.5701,63.32,95,0,6.91,ZA,1697671617
12,waitangi,-43.9535,-176.5597,55.81,79,98,10.0,NZ,1697671617
13,bathsheba,13.2167,-59.5167,84.81,79,40,12.66,BB,1697671617
14,ushuaia,-54.8,-68.3,56.86,46,0,15.01,AR,1697671617
15,adamstown,-25.066,-130.1015,73.0,78,57,7.47,PN,1697671617
16,nyurba,63.2842,118.3319,8.11,96,67,5.99,RU,1697671617
17,edinburgh of the seven seas,-37.0676,-12.3116,55.51,93,100,27.58,SH,1697671521
18,zouerate,22.7187,-12.4521,87.4,21,3,8.75,MR,1697671618
19,puerto natales,-51.7236,-72.4875,48.09,88,93,4.09,CL,1697671398
20,grytviken,-54.2811,-36.5092,37.33,80,100,9.46,GS,1697671618
21,papatowai,-46.5619,169.4708,58.53,55,100,11.27,NZ,1697671618
22,albany,42.6001,-73.9662,54.18,84,96,2.17,US,1697671416
23,tsiombe,-25.3,45.4833,70.52,93,100,3.91,MG,1697671618
24,tionk essil,12.7856,-16.5217,84.16,81,91,4.99,SN,1697671618
25,ceeldheer,3.8488,47.1806,80.4,79,42,8.05,SO,1697671618
26,iqaluit,63.7506,-68.5145,29.93,92,100,11.5,CA,1697671618
27,aquin,18.2833,-73.4,82.27,76,35,2.91,HT,1697671619
28,melekeok village,7.4957,134.6367,84.76,84,75,3.44,PW,1697671619
29,qarauyl,48.9451,79.255,45.63,58,1,8.95,KZ,1697671619
30,susuman,62.7833,148.1667,7.99,76,100,1.01,RU,1697671619
31,east london,-33.0153,27.9116,66.22,82,97,13.0,ZA,1697671619
32,alofi,-19.0595,-169.9187,80.49,47,40,18.41,NU,1697671619
33,puerto ayora,-0.7393,-90.3518,75.54,96,87,8.01,EC,1697671619
34,queenstown,-31.8976,26.8753,55.45,86,77,3.27,ZA,1697671619
35,blackmans bay,-43.0167,147.3167,63.52,67,94,1.01,AU,1697671619
36,lompoc,34.6391,-120.4579,95.14,70,20,5.75,US,1697671620
37,egilsstadir,65.2653,-14.3948,46.31,71,75,10.36,IS,1697671620
38,flying fish cove,-10.4217,105.6791,78.48,88,75,10.36,CX,1697671620
39,newman,37.3138,-121.0208,91.24,34,0,1.99,US,1697671564
40,punta arenas,-53.15,-70.9167,55.51,54,0,16.11,CL,1697671329
41,kingston,17.997,-76.7936,86.95,81,20,9.22,JM,1697671365
42,kerikeri,-35.2268,173.9474,60.67,93,100,8.72,NZ,1697671620
43,hithadhoo,-0.6,73.0833,79.77,81,61,7.31,MV,1697671620
44,silver city,32.7701,-108.2803,80.67,17,0,5.99,US,1697671620
45,mount pearl,47.5166,-52.7813,46.33,86,100,9.22,CA,1697671620
46,miles city,46.4083,-105.8406,63.57,34,0,6.91,US,1697671621
47,bilibino,68.0546,166.4372,-0.04,98,99,1.57,RU,1697671621
48,invercargill,-46.4,168.35,58.01,69,99,18.01,NZ,1697671621
49,college,64.8569,-147.8028,28.35,73,100,10.36,US,1697671621
50,hammerfest,70.6634,23.6821,32.45,64,100,8.05,NO,1697671621
51,funadhoo,6.15,73.2667,80.51,77,93,8.34,MV,1697671621
52,jamestown,42.097,-79.2353,53.19,69,100,4.61,US,1697671578
53,singrauli,24.1997,82.6753,67.66,80,0,2.37,IN,1697671622
54,talnakh,69.4865,88.3972,40.21,98,100,12.77,RU,1697671622
55,arraial do cabo,-22.9661,-42.0278,71.73,87,67,15.5,BR,1697671557
56,amlapura,-8.45,115.6167,77.56,83,82,2.59,ID,1697671622
57,whangarei,-35.7317,174.3239,64.0,82,85,8.48,NZ,1697671622
58,greymouth,-42.4667,171.2,54.54,64,82,5.1,NZ,1697671622
59,stanley,54.868,-1.6985,52.29,88,75,17.27,GB,1697671622
60,ilulissat,69.2167,-51.1,15.82,73,100,5.75,GL,1697671622
61,zykovo,55.9519,93.1461,41.61,83,9,7.0,RU,1697671622
62,malango,-2.9627,119.9001,70.03,90,70,1.01,ID,1697671623
63,sao joao dos inhamuns,-6.0,-40.2833,88.41,26,6,6.15,BR,1697671365
64,saint-vincent-de-tyrosse,43.6603,-1.308,72.93,94,95,3.44,FR,1697671623
65,bredasdorp,-34.5322,20.0403,60.17,94,51,11.21,ZA,1697671623
66,gadzhiyevo,69.2551,33.3362,35.02,60,100,22.37,RU,1697671623
67,west valley,46.5921,-120.6051,71.78,39,0,4.61,US,1697671623
68,kodiak,57.79,-152.4072,51.31,35,0,37.98,US,1697671327
69,coari,-4.085,-63.1414,82.96,61,61,1.12,BR,1697671623
70,fisterra,42.9049,-9.2629,67.01,85,3,25.43,ES,1697671623
71,lebu,-37.6167,-73.65,53.76,79,6,8.05,CL,1697671624
72,cumberland,35.0502,-78.8664,63.48,70,0,3.44,US,1697671624
73,preobrazheniye,42.9019,133.9064,49.44,83,98,8.01,RU,1697671624
74,dogondoutchi,13.6393,4.0287,90.16,18,60,6.62,NE,1697671624
75,port-aux-francais,-49.35,70.2167,36.7,84,100,21.45,TF,1697671624
76,port saint john's,-31.6229,29.5448,65.52,80,16,6.08,ZA,1697671624
77,souillac,-20.5167,57.5167,77.38,88,75,5.75,MU,1697671624
78,dudinka,69.4058,86.1778,40.62,99,100,17.0,RU,1697671443
79,bethel,41.3712,-73.414,58.55,81,100,5.75,US,1697671624
80,aykhal,66.0,111.5,6.06,97,84,3.0,RU,1697671624
81,el bauga,18.262,33.9081,87.48,19,60,14.65,SD,1697671625
82,kruisfontein,-34.0033,24.7314,58.57,93,49,0.83,ZA,1697671625
83,mooloolaba,-26.6833,153.1167,72.05,63,99,8.01,AU,1697671625
84,sainte-agathe-des-monts,46.0501,-74.2825,48.49,81,89,3.74,CA,1697671625
85,zaranj,30.9667,61.8833,72.18,26,0,8.66,AF,1697671625
86,pasir mas,6.0493,102.1399,77.09,94,88,2.84,MY,1697671625
87,san rafael,-34.6177,-68.3301,52.41,80,92,9.06,AR,1697671625
88,zaozersk,69.4005,32.4476,31.37,72,100,8.12,RU,1697671625
89,kidal,18.4411,1.4078,87.6,14,5,7.25,ML,1697671626
90,mitu,1.1983,-70.1733,76.77,85,90,1.59,CO,1697671380
91,komotini,41.1228,25.3964,50.05,89,38,1.81,GR,1697671626
92,san julian,21.0167,-102.1667,71.06,22,100,6.11,MX,1697671626
93,hamilton,39.1834,-84.5333,61.41,67,0,6.91,US,1697671388
94,west island,-12.1568,96.8225,76.98,83,40,10.36,CC,1697671626
95,margaret river,-33.95,115.0667,51.94,85,58,7.63,AU,1697671626
96,crixas,-14.5489,-49.9692,86.77,16,31,2.42,BR,1697671626
97,kimbe,-5.5502,150.1429,86.34,66,37,0.54,PG,1697671626
98,seven pagodas,12.6264,80.1722,82.06,82,100,6.85,IN,1697671627
99,salinopolis,-0.6136,-47.3561,80.65,81,24,14.38,BR,1697671627
100,anadyr,64.75,177.4833,18.1,78,0,13.42,RU,1697671627
101,boende,-0.2167,20.8667,71.87,99,100,2.86,CD,1697671627
102,praia da vitoria,38.7333,-27.0667,67.75,94,75,17.9,PT,1697671457
103,newberry,34.2746,-81.6187,61.47,83,10,4.56,US,1697671627
104,luderitz,-26.6481,15.1594,60.53,85,26,3.89,NA,1697671627
105,port douglas,-16.4833,145.4667,75.78,73,94,13.82,AU,1697671440
106,olonkinbyen,70.9221,-8.7187,38.46,88,100,23.67,SJ,1697671627
107,hawaiian paradise park,19.5933,-154.9731,84.04,71,0,10.36,US,1697671628
108,galesong,-5.3166,119.3661,82.42,67,98,3.91,ID,1697671628
109,pisco,-13.7,-76.2167,68.05,83,0,18.41,PE,1697671628
110,port-vila,-17.7338,168.3219,74.8,94,100,5.75,VU,1697671628
111,port alfred,-33.5906,26.891,62.19,96,82,6.64,ZA,1697671628
112,komsomol'skiy,43.9783,46.6985,55.96,60,100,12.62,RU,1697671628
113,altai,46.3722,96.2583,31.03,59,0,0.78,MN,1697671628
114,tazovsky,67.4667,78.7,39.54,94,100,12.73,RU,1697671628
115,petropavlovsk-kamchatsky,53.0452,158.6483,46.99,88,0,8.95,RU,1697671628
116,afaahiti,-17.75,-149.2833,78.67,82,91,17.27,PF,1697671629
117,mount gambier,-37.8333,140.7667,66.29,37,32,7.96,AU,1697671405
118,mbandaka,0.0487,18.2603,72.55,97,100,2.24,CD,1697671629
119,tongchuanshi,35.0806,109.0897,50.43,84,100,3.38,CN,1697671629
120,kununurra,-15.7667,128.7333,76.98,50,0,2.3,AU,1697671568
121,isafjordur,66.0755,-23.124,43.29,78,100,8.34,IS,1697671629
122,fuling,29.7022,107.3919,66.52,95,96,5.86,CN,1697671629
123,safaga,26.7292,33.9365,78.39,43,0,12.44,EG,1697671629
124,las palmas,28.4204,-14.0131,72.39,69,0,5.75,ES,1697671629
125,jayapura,-2.5333,140.7,83.59,72,69,2.15,ID,1697671630
126,shalqar,47.8333,59.6,45.36,47,100,5.41,KZ,1697671630
127,vadso,70.0744,29.7487,31.08,74,0,9.22,NO,1697671630
128,wailua homesteads,22.0669,-159.378,83.19,63,20,9.22,US,1697671630
129,sisimiut,66.9395,-53.6735,23.2,80,100,14.79,GL,1697671630
130,holualoa,19.6228,-155.9522,81.77,81,40,11.5,US,1697671630
131,harrisonville,38.6533,-94.3488,62.98,60,0,4.61,US,1697671630
132,utrik,11.2278,169.8474,82.98,76,36,17.98,MH,1697671630
133,rongelap,11.1635,166.8941,81.3,78,100,12.41,MH,1697671630
134,tiksi,71.6872,128.8694,17.92,97,100,5.57,RU,1697671631
135,udachny,66.4167,112.4,12.45,92,81,4.14,RU,1697671631
136,harper,4.375,-7.7169,77.58,89,44,4.85,LR,1697671631
137,la palma,33.8464,-118.0467,98.11,69,0,11.5,US,1697671631
138,valognes,49.5088,-1.4705,60.19,94,100,19.57,FR,1697671631
139,santa cruz,-17.8,-63.1667,89.65,48,55,9.22,BO,1697671474
140,mashhad,36.297,59.6062,51.94,82,0,0.0,IR,1697671631
141,hassan,13.0006,76.0994,66.78,84,80,2.84,IN,1697671631
142,fangshan,39.6983,115.9925,60.28,23,100,6.6,CN,1697671631
143,tolanaro,-25.0319,46.9987,75.27,88,75,4.61,MG,1697671631
144,kristiansund,63.1115,7.732,39.85,70,0,13.8,NO,1697671632
145,centralia,46.7162,-122.9543,74.77,59,0,0.0,US,1697671427
146,cayey,18.1119,-66.166,81.3,86,7,1.99,PR,1697671632
147,yalutorovsk,56.6536,66.3006,38.97,68,27,13.0,RU,1697671632
148,whitehorse,60.7161,-135.0538,47.17,88,100,12.66,CA,1697671632
149,san antonio de pale,-1.4014,5.6325,78.64,83,100,7.54,GQ,1697671632
150,ribeira grande,38.5167,-28.7,67.77,81,69,7.0,PT,1697671632
151,prigen,-7.6833,112.6167,67.53,72,67,2.13,ID,1697671632
152,naters,46.3254,7.9891,58.44,95,100,6.55,CH,1697671632
153,tegucigalpa,14.0818,-87.2068,72.36,78,75,17.27,HN,1697671632
154,at taj,24.2049,23.2857,68.29,27,3,7.96,LY,1697671633
155,machico,32.7,-16.7667,75.0,73,20,5.75,PT,1697671633
156,lerwick,60.1545,-1.1494,50.0,84,76,28.92,GB,1697671633
157,bafq,31.6128,55.4107,66.87,32,1,1.66,IR,1697671633
158,tonghae,37.5439,129.1069,61.54,68,100,7.54,KR,1697671633
159,conde,-7.2597,-34.9075,76.46,78,20,8.05,BR,1697671633
160,pahrump,36.2083,-115.9839,94.24,12,0,1.99,US,1697671633
161,jwaneng,-24.6004,24.7303,66.18,35,0,6.15,BW,1697671633
162,moeiwadi,16.3894,104.1572,71.91,87,89,1.05,TH,1697671576
163,kifri,34.6959,44.9661,73.4,35,6,5.86,IQ,1697671634
164,minas de marcona,-15.2119,-75.1103,60.6,84,57,12.91,PE,1697671634
165,toliara,-23.35,43.6667,72.39,87,73,3.98,MG,1697671634
166,atafu village,-8.5421,-172.5159,83.5,72,32,8.43,TK,1697671634
167,chui,-33.6971,-53.4616,52.16,88,23,5.23,UY,1697671634
168,laojunmiao,39.8333,97.7333,36.36,30,0,6.58,CN,1697671634
169,fort st. john,56.2499,-120.8529,60.69,44,40,23.02,CA,1697671634
170,praya,14.9215,-23.5087,81.14,78,20,10.36,CV,1697671634
171,chipinge,-20.1883,32.6236,57.42,89,16,2.95,ZW,1697671634
172,new norfolk,-42.7826,147.0587,64.71,41,98,2.59,AU,1697671550
173,tofol,5.3248,163.0078,85.78,74,75,3.44,FM,1697671635
174,rio preto da eva,-2.6994,-59.6997,81.79,66,57,2.77,BR,1697671635
175,puerto lempira,15.2667,-83.7667,77.14,88,100,2.3,HN,1697671635
176,cole harbour,44.6724,-63.4751,53.71,87,97,8.05,CA,1697671635
177,avarua,-21.2078,-159.775,77.05,53,8,9.22,CK,1697671635
178,sidney,-33.8679,151.2073,68.72,66,75,8.05,AU,1697671630
179,palu,-0.8917,119.8707,78.21,90,96,2.37,ID,1697671363
180,el tigre,8.8875,-64.2454,85.3,53,77,3.44,VE,1697671635
181,swakopmund,-22.6833,14.5333,58.98,84,18,5.01,NA,1697671635
182,tromso,69.6496,18.957,32.02,86,100,10.36,NO,1697671636
183,primero de mayo,-32.2552,-58.4228,64.81,43,75,11.48,AR,1697671636
184,ambovombe,-25.1667,46.0833,71.4,90,94,6.38,MG,1697671636
185,leh,34.1667,77.5833,31.59,63,44,3.0,IN,1697671636
186,saipan,15.1355,145.701,86.7,74,40,16.11,MP,1697671607
187,keflavik,64.0049,-22.5624,50.43,81,100,41.43,IS,1697671636
188,puerto baquerizo moreno,-0.9,-89.6,75.2,86,99,11.34,EC,1697671636
189,gobabis,-22.45,18.9667,67.1,22,0,11.14,NA,1697671636
190,mil'kovo,55.6078,37.7956,41.41,96,100,7.74,RU,1697671637
191,thunder bay,48.4001,-89.3168,53.58,87,100,9.22,CA,1697671620
192,port mathurin,-19.6833,63.4167,74.21,82,44,10.89,MU,1697671637
193,alenquer,-1.9417,-54.7383,83.37,60,44,3.98,BR,1697671637
194,howrah,22.5892,88.3103,77.0,88,20,3.44,IN,1697671637
195,palmas,-10.2128,-48.3603,84.07,61,0,3.44,BR,1697671637
196,at taraf,25.3628,49.725,79.34,76,0,3.13,SA,1697671637
197,weno,7.4515,151.8468,85.95,74,40,4.61,FM,1697671637
198,banda aceh,5.5577,95.3222,78.12,86,100,6.53,ID,1697671637
199,prince rupert,54.3161,-130.3201,55.49,82,100,34.52,CA,1697671638
200,bubaque,11.2833,-15.8333,82.29,78,100,9.4,GW,1697671638
201,ancud,-41.8697,-73.8203,48.81,89,42,9.4,CL,1697671638
202,sona,45.4388,10.8255,52.32,99,75,3.44,IT,1697671638
203,zambezi,-13.5432,23.1047,73.51,49,45,2.71,ZM,1697671638
204,beinamar,8.6698,15.3813,76.87,65,100,4.68,TD,1697671575
205,tippi,7.2,35.45,63.63,97,96,3.24,ET,1697671638
206,touros,-5.1989,-35.4608,77.7,75,5,13.18,BR,1697671638
207,sumberpucung,-8.1586,112.4829,72.77,87,97,2.53,ID,1697671638
208,hadibu,12.65,54.0333,81.28,78,14,5.86,YE,1697671639
209,dakhla,23.6848,-15.958,71.08,90,1,14.09,EH,1697671639
210,cabo san lucas,22.8909,-109.9124,90.61,70,75,4.61,MX,1697671403
211,mokhsogollokh,61.4681,128.9203,23.23,87,100,9.46,RU,1697671639
212,nova sintra,14.8667,-24.7167,76.57,70,0,8.72,CV,1697671639
213,aswan,24.0934,32.907,72.7,33,0,4.61,EG,1697671639
214,mount isa,-20.7333,139.5,85.77,10,3,5.75,AU,1697671639
215,tiquipaya,-17.3382,-66.2189,68.72,35,40,9.22,BO,1697671639
216,hermanus,-34.4187,19.2345,61.59,87,39,16.15,ZA,1697671639
217,georgetown,5.4112,100.3354,78.73,98,20,2.3,MY,1697671592
218,broken hill,-31.95,141.4333,74.37,23,0,4.34,AU,1697671640
219,lazaro cardenas,17.9583,-102.2,74.62,94,100,7.09,MX,1697671640
220,itoman,26.1247,127.6694,77.77,69,20,5.75,JP,1697671640
221,bezhetsk,57.7851,36.6965,37.09,72,100,4.23,RU,1697671640
222,fale old settlement,-9.3852,-171.2468,83.23,71,75,6.67,TK,1697671640
223,ad dabbah,18.05,30.95,79.97,19,19,13.49,SD,1697671519
224,scarborough,54.2797,-0.4044,53.17,90,100,14.0,GB,1697671468
225,dhidhdhoo,6.8833,73.1,80.37,80,100,8.3,MV,1697671640
226,tachov,49.7953,12.6337,45.64,86,96,3.74,CZ,1697671640
227,suoyarvi,62.0833,32.35,29.61,94,100,6.17,RU,1697671641
228,recani,31.2846,-4.2688,79.56,21,39,14.16,MA,1697671641
229,baiyin,36.5583,104.2081,40.64,71,96,3.42,CN,1697671641
230,marica,-22.9194,-42.8186,75.15,88,95,10.04,BR,1697671641
231,pangody,65.85,74.4859,41.72,93,100,10.89,RU,1697671641
232,brookings,44.3114,-96.7984,53.19,82,100,5.01,US,1697671641
233,langres,47.8333,5.3333,55.18,96,100,13.71,FR,1697671641
234,katsuura,35.1333,140.3,71.31,64,46,14.79,JP,1697671641
235,barcelos,41.5388,-8.6151,66.34,87,96,14.38,PT,1697671641
236,enewetak,11.3474,162.3373,83.46,77,24,16.08,MH,1697671642
237,sitka,57.0531,-135.33,55.29,88,100,6.91,US,1697671642
238,cockburn town,21.4612,-71.1419,84.36,75,27,13.82,TC,1697671642
239,uturoa,-16.7333,-151.4333,79.41,77,34,12.17,PF,1697671642
240,chai buri,8.4622,99.0763,74.95,95,93,0.69,TH,1697671642
241,qaqortoq,60.7167,-46.0333,29.14,59,23,3.49,GL,1697671642
242,coquimbo,-29.9533,-71.3436,60.53,67,0,10.36,CL,1697671642
243,filey,54.21,-0.2892,54.79,90,100,11.01,GB,1697671642
244,tazacorte,28.629,-17.9293,72.57,80,0,5.75,ES,1697671642
245,kouvola,60.8667,26.7,32.59,78,100,8.05,FI,1697671642
246,esposende,41.5361,-8.782,66.78,85,89,18.16,PT,1697671643
247,villa gesell,-37.2639,-56.973,51.87,62,66,11.74,AR,1697671643
248,longyearbyen,78.2186,15.6401,37.24,75,40,27.63,SJ,1697671643
249,fortuna,40.5982,-124.1573,56.32,100,100,10.36,US,1697671643
250,hampton bays,40.869,-72.5176,58.91,88,100,0.0,US,1697671643
251,shevchenko,48.5,35.0,46.62,55,23,10.22,UA,1697671643
252,callao,-12.0667,-77.15,74.71,77,75,12.66,PE,1697671643
253,tinajo,29.0788,-13.7081,74.28,69,20,8.05,ES,1697671643
254,kailua-kona,19.6406,-155.9956,85.5,80,40,11.5,US,1697671583
255,korla,41.7597,86.1469,46.71,35,0,3.4,CN,1697671644
256,buraydah,26.326,43.975,77.45,15,42,11.7,SA,1697671644
257,aasiaat,68.7098,-52.8699,3.56,90,67,4.88,GL,1697671644
258,thompson,55.7435,-97.8558,41.16,70,40,2.3,CA,1697671644
259,ad dilam,23.9915,47.1627,77.41,21,0,7.9,SA,1697671644
260,amungan,15.3652,119.9582,80.24,77,40,4.16,PH,1697671644
261,vorkuta,67.5,64.0,32.72,82,52,14.61,RU,1697671644
262,iskateley,67.6803,53.1512,34.02,89,100,8.99,RU,1697671644
263,constantia,44.1833,28.65,45.7,73,2,9.51,RO,1697671632
264,kasempa,-13.4584,25.8338,72.09,53,84,2.42,ZM,1697671645
265,harnai,30.1005,67.9374,65.82,50,0,3.29,PK,1697671456
266,alice springs,-23.7,133.8833,78.35,10,0,1.14,AU,1697671551
267,palora,-1.7,-77.9333,77.11,94,83,1.5,EC,1697671645
268,yelizovo,53.1873,158.3805,48.34,66,0,8.99,RU,1697671645
269,vila velha,-20.3297,-40.2925,75.15,83,100,11.5,BR,1697671388
270,kayangel,8.0823,134.7173,83.08,72,12,3.78,PW,1697671645
271,ola,59.5833,151.2833,28.42,38,6,5.66,RU,1697671645
272,badger,64.8,-147.5333,28.27,78,100,10.36,US,1697671645
273,darwin,-12.4611,130.8418,87.89,74,20,3.44,AU,1697671646
274,al bawiti,28.3492,28.8659,69.03,56,0,6.46,EG,1697671646
275,langarud,37.197,50.1535,64.92,87,70,3.31,IR,1697671646
276,labrador city,52.9463,-66.9114,40.91,65,0,8.05,CA,1697671646
277,la solana,38.9442,-3.2381,59.0,79,86,21.97,ES,1697671646
278,guatire,10.4762,-66.5427,74.19,97,91,1.43,VE,1697671646
279,shanhecun,44.7,127.2,40.73,63,32,10.13,CN,1697671646
280,maragogi,-9.0122,-35.2225,75.78,75,81,10.13,BR,1697671646
281,kasongo-lunda,-6.4667,16.8167,71.33,96,68,1.54,CD,1697671646
282,sao jose da coroa grande,-8.8978,-35.1478,75.72,76,71,10.25,BR,1697671647
283,al mijlad,11.0333,27.7333,82.29,44,61,6.42,SD,1697671647
284,uaua,-9.8414,-39.4817,82.29,28,61,7.78,BR,1697671647
285,borzya,50.3833,116.5167,28.15,49,63,8.16,RU,1697671647
286,chingirlau,51.095,54.0814,37.22,58,0,9.31,KZ,1697671647
287,fort bragg,35.139,-79.006,63.18,69,0,3.44,US,1697671647
288,ndele,8.4109,20.6473,72.77,63,96,0.49,CF,1697671647
289,vilyuchinsk,52.9306,158.4028,48.47,72,84,10.74,RU,1697671647
290,west bay,19.3667,-81.4167,77.07,94,40,5.75,KY,1697671648
291,luau,-10.7073,22.2247,68.83,74,27,4.68,AO,1697671648
292,mossendjo,-2.9506,12.7261,70.57,98,100,1.43,CG,1697671648
293,along,28.1667,94.7667,59.83,93,35,1.92,IN,1697671648
294,le port,-20.9373,55.2919,77.0,96,93,4.63,RE,1697671648
295,cowansville,45.2001,-72.7491,54.59,75,100,2.3,CA,1697671648
296,manicore,-5.8092,-61.3003,84.97,51,57,1.48,BR,1697671648
297,lensk,60.7253,114.9278,29.71,80,84,8.01,RU,1697671648
298,lata,40.1629,-8.3327,65.07,96,98,13.73,PT,1697671648
299,el calafate,-50.3408,-72.2768,50.18,71,58,7.67,AR,1697671649
300,abilene,32.4487,-99.7331,88.02,24,0,11.5,US,1697671649
301,freetown,8.484,-13.2299,80.31,78,75,6.91,SL,1697671649
302,tregunc,47.85,-3.85,62.85,82,79,27.87,FR,1697671649
303,nyala,12.05,24.8833,79.68,19,95,7.94,SD,1697671649
304,kuta,-8.7233,115.1723,80.55,88,20,5.01,ID,1697671649
305,sungailiat,-1.85,106.1333,79.79,85,87,7.02,ID,1697671649
306,ar ruways,24.1103,52.7306,83.23,66,0,6.73,AE,1697671649
307,lumphat,13.4878,106.9816,72.55,99,66,1.52,KH,1697671649
308,taltal,-25.4,-70.4833,64.8,65,16,4.9,CL,1697671649
309,chayan,43.0297,69.3772,57.43,40,66,2.06,KZ,1697671650
310,rio grande,-32.035,-52.0986,59.95,71,88,12.75,BR,1697671585
311,la'ie,21.6477,-157.9253,87.76,66,20,10.71,US,1697671650
312,auki,-8.7676,160.7034,83.82,70,61,3.74,SB,1697671650
313,puerto san jose,13.9256,-90.8244,82.58,80,72,7.72,GT,1697671650
314,bolvadin,38.7111,31.0486,52.23,79,89,4.21,TR,1697671650
315,chonchi,-42.6128,-73.8092,51.01,89,52,2.98,CL,1697671650
316,pimentel,-6.8367,-79.9342,71.89,73,0,20.71,PE,1697671650
317,nagqu,31.5,92.0,20.46,91,100,4.12,CN,1697671650
318,champerico,14.3,-91.9167,88.34,80,27,7.99,GT,1697671651
319,tual,-5.6667,132.75,79.75,80,14,12.15,ID,1697671651
320,golere,16.2557,-14.1017,96.21,29,36,1.72,SN,1697671522
321,lindsay,36.203,-119.0882,94.01,31,0,6.91,US,1697671599
322,kas,36.2018,29.6377,68.74,65,3,6.73,TR,1697671651
323,sodankyla,67.4167,26.6,21.42,92,39,7.18,FI,1697671651
324,qusmuryn,52.4503,64.6311,38.98,63,27,8.99,KZ,1697671651
325,lashio,22.9333,97.75,60.53,99,25,0.67,MM,1697671651
326,madang,-5.2246,145.7966,83.88,72,77,1.83,PG,1697671652
327,vorgashor,67.5833,63.95,32.31,82,51,14.43,RU,1697671652
328,gore,-46.1028,168.9436,59.38,52,83,6.04,NZ,1697671652
329,kindu,-2.95,25.95,70.38,98,97,1.61,CD,1697671652
330,nguigmi,14.2495,13.1092,86.85,24,100,10.56,NE,1697671652
331,santiago,-33.4569,-70.6483,64.85,53,0,12.66,CL,1697671440
332,pingliang,35.5392,106.6861,43.16,71,98,8.37,CN,1697671652
333,raja,8.4596,25.678,72.07,89,87,1.43,SS,1697671652
334,emerald,-23.5333,148.1667,73.35,57,10,13.42,AU,1697671653
335,mawu,29.5923,107.3139,62.35,94,97,6.4,CN,1697671653
336,fruita,39.1589,-108.729,78.62,24,0,5.75,US,1697671653
337,shiguai,40.7058,110.2856,39.43,37,38,7.45,CN,1697671653
338,makueni boma,-1.8041,37.6203,66.63,90,87,6.98,KE,1697671653
339,irinjalakuda,10.3333,76.2333,76.89,96,100,3.24,IN,1697671653
340,putina,-15.4667,-69.4333,49.35,65,49,11.32,PE,1697671653
341,yantarnyy,54.8717,19.9381,48.94,73,100,12.82,RU,1697671653
342,ilha de mocambique,-15.0342,40.7358,78.51,79,67,6.96,MZ,1697671653
343,az zuwaytinah,30.9522,20.1202,75.76,43,1,8.21,LY,1697671654
344,hakha,22.65,93.6167,52.48,79,3,2.15,MM,1697671654
345,bhawanipatna,19.9,83.1667,68.41,91,2,1.3,IN,1697671654
346,kizner,56.2749,51.508,36.45,83,81,9.75,RU,1697671654
347,pemangkat,1.1667,108.9667,77.95,88,100,7.09,ID,1697671654
348,port lincoln,-34.7333,135.8667,71.26,33,49,7.99,AU,1697671586
349,durban,-29.8579,31.0292,68.92,85,98,3.94,ZA,1697671654
350,mae hong son,19.3003,97.9685,75.34,94,75,0.0,TH,1697671654
351,levuka,50.1834,-105.4011,58.73,55,75,9.22,CA,1697671655
352,bondoukou,8.0333,-2.8,75.16,83,87,2.17,CI,1697671655
353,urumqi,43.801,87.6005,40.15,56,0,4.47,CN,1697671655
354,urengoy,65.9667,78.3667,42.12,94,100,11.99,RU,1697671655
355,sinabang,2.4803,96.3801,78.22,84,100,4.32,ID,1697671655
356,sandnessjoen,66.0217,12.6316,25.32,68,0,12.84,NO,1697671655
357,saint-pierre,-21.3393,55.4781,76.68,78,100,3.44,RE,1697671655
358,la foa,-21.7108,165.8276,72.97,55,22,8.68,NC,1697671655
359,al ain city,24.1917,55.7606,82.02,65,0,6.91,AE,1697671656
360,kresek,-6.1314,106.3797,85.32,73,89,4.41,ID,1697671656
361,cidreira,-30.1811,-50.2056,62.38,76,100,10.71,BR,1697671656
362,wongsorejo,-7.9908,114.4009,78.66,73,89,8.14,ID,1697671656
363,kapa'a,22.0752,-159.319,84.52,62,20,9.22,US,1697671656
364,margate,51.3813,1.3862,58.87,93,100,8.99,GB,1697671590
365,mareeba,-17.0,145.4333,78.48,67,51,8.34,AU,1697671445
366,verkhniy ufaley,56.0567,60.2306,34.36,90,100,12.8,RU,1697671656
367,saint-joseph,-21.3667,55.6167,75.58,86,93,4.54,RE,1697671657
368,zhengzhou,34.7578,113.6486,59.49,66,100,9.1,CN,1697671657
369,faya-largeau,17.9257,19.1043,79.36,18,31,12.73,TD,1697671657
370,nur-sultan,51.1801,71.446,37.35,75,0,11.18,KZ,1697671573
371,st. john's,47.5649,-52.7093,47.16,86,100,9.22,CA,1697671359
372,natal,-5.795,-35.2094,79.45,78,75,13.8,BR,1697671657
373,nilsia,63.2,28.0833,31.86,90,98,7.27,FI,1697671657
374,lihue,21.9789,-159.3672,83.79,62,20,9.22,US,1697671400
375,muli,2.9167,73.5667,81.64,73,93,7.9,MV,1697671658
376,sur,22.5667,59.5289,80.73,76,10,11.32,OM,1697671658
377,santa terezinha,-29.9002,-50.0904,62.22,77,100,7.05,BR,1697671658
378,chalons-en-champagne,48.9539,4.3672,62.67,92,93,15.46,FR,1697671658
379,geraldton,-28.7667,114.6,59.41,88,97,8.05,AU,1697671658
380,neiafu,-18.65,-173.9833,74.35,62,9,16.26,TO,1697671658
381,opochka,56.7105,28.6617,35.98,93,100,6.35,RU,1697671658
382,cidade velha,14.9167,-23.6167,81.07,78,20,10.36,CV,1697671659
383,prachuap khiri khan,12.2167,99.75,79.68,94,99,3.09,TH,1697671539
384,arkalyk,50.2486,66.9114,41.85,59,99,7.05,KZ,1697671659
385,kogalym,62.2654,74.4791,44.11,95,100,11.32,RU,1697671659
386,kapit,2.0167,112.9333,74.03,99,100,1.9,MY,1697671659
387,ngozi,-2.9075,29.8306,59.83,82,71,2.91,BI,1697671659
388,pauillac,45.1964,-0.7487,62.98,89,88,13.24,FR,1697671659
389,nuuk,64.1835,-51.7216,25.41,74,75,25.32,GL,1697671659
390,tannum sands,-23.9504,151.3693,75.09,46,40,14.97,AU,1697671659
391,vila franca do campo,37.7167,-25.4333,74.88,99,56,23.17,PT,1697671659
392,kasba tadla,32.5977,-6.2684,69.19,55,61,5.99,MA,1697671660
393,tadine,-21.55,167.8833,72.21,63,5,15.23,NC,1697671660
394,khandyga,62.6667,135.6,25.02,96,100,4.54,RU,1697671660
395,nadi,-17.8,177.4167,84.2,58,40,11.5,FJ,1697671660
396,chadan,51.2833,91.5833,37.78,71,0,1.99,RU,1697671660
397,smithers,54.7804,-127.1743,57.52,58,75,9.22,CA,1697671660
398,lieksa,63.3167,30.0167,30.99,92,96,10.51,FI,1697671660
399,manokwari,-0.8667,134.0833,82.02,70,28,2.62,ID,1697671660
400,horta,38.5333,-28.6333,67.01,81,77,7.0,PT,1697671660
401,pundong,-7.9522,110.3486,75.36,87,88,2.93,ID,1697671661
402,dolinsk,47.35,142.8,51.73,69,100,14.25,RU,1697671661
403,patterson,37.4716,-121.1297,90.75,34,0,3.87,US,1697671620
404,timaru,-44.4,171.25,57.4,69,56,7.85,NZ,1697671661
405,palikir - national government center,6.9248,158.1611,90.34,62,75,4.61,FM,1697671661
406,klaksvik,62.2266,-6.589,47.32,85,100,31.61,FO,1697671661
407,mendoza,-32.8908,-68.8272,62.13,39,20,10.36,AR,1697671661
408,nabire,-3.3667,135.4833,81.52,75,55,2.04,ID,1697671661
409,fortaleza,-3.7227,-38.5247,83.07,76,20,8.05,BR,1697671493
410,kudahuvadhoo,2.6708,72.8944,81.54,74,89,9.44,MV,1697671662
411,recife,-8.0539,-34.8811,80.64,65,40,12.66,BR,1697671370
412,biltine,14.5333,20.9167,79.45,15,95,10.94,TD,1697671662
413,bag,22.3667,74.7667,75.09,55,0,3.76,IN,1697671662
414,yenisarbademli,37.7078,31.3864,52.86,85,37,6.24,TR,1697671662
415,priozersk,61.0393,30.1291,37.0,87,100,9.28,RU,1697671662
416,bonthe,7.5264,-12.505,77.56,87,81,1.99,SL,1697671662
417,kamina,-8.7386,24.9906,66.45,91,86,1.61,CD,1697671662
418,guixi,28.2886,117.2133,69.22,74,100,4.05,CN,1697671662
419,lhasa,29.65,91.1,36.18,68,22,4.74,CN,1697671663
420,codrington,-38.2667,141.9667,68.9,39,29,12.15,AU,1697671663
421,jalal-abad,40.9333,73.0,51.44,37,97,4.72,KG,1697671663
422,conneaut,41.9476,-80.5542,56.5,81,43,1.16,US,1697671663
423,ebon,4.582,168.6964,82.38,76,100,21.52,MH,1697671663
424,ko pha ngan,9.7578,100.0291,74.08,70,95,8.81,TH,1697671663
425,muroto-misakicho,33.2833,134.15,71.46,62,28,5.55,JP,1697671663
426,gonabad,34.3529,58.6837,59.9,48,1,3.4,IR,1697671663
427,imbituba,-28.24,-48.6703,68.86,80,100,4.38,BR,1697671663
428,alesund,62.4723,6.1549,41.32,73,0,13.8,NO,1697671664
429,vanino,49.0869,140.2543,46.92,70,100,10.49,RU,1697671664
430,affery,6.315,-3.9603,73.49,99,77,2.59,CI,1697671664
431,holmsund,63.706,20.3641,30.15,74,20,9.22,SE,1697671664
432,usinsk,65.9939,57.5281,35.08,97,100,13.0,RU,1697671664
433,toamasina,-18.1667,49.3833,73.4,94,75,2.3,MG,1697671664
434,papao,-17.75,-149.55,80.28,76,87,18.92,PF,1697671664
435,san patricio,28.017,-97.5169,82.35,48,4,13.69,US,1697671664
436,brak,27.5496,14.2714,77.88,17,12,6.29,LY,1697671664
437,portland,45.5234,-122.6762,75.99,54,20,3.44,US,1697671427
438,cabugao,17.7931,120.4578,76.86,81,100,3.83,PH,1697671665
439,itaituba,-4.2761,-55.9836,82.81,57,87,2.82,BR,1697671665
440,fada,9.5667,8.3,70.56,91,98,0.78,NG,1697671665
441,kahramanmaras,38.0,37.0,50.59,80,100,7.4,TR,1697671665
442,la passe,45.5549,-0.8967,62.83,85,79,15.01,FR,1697671665
443,balikpapan,-1.2675,116.8289,76.53,89,95,3.13,ID,1697671665
444,hengchun,22.0042,120.7439,78.12,80,80,14.23,TW,1697671665
445,guilin,25.2819,110.2864,71.71,90,100,0.45,CN,1697671665
446,agadez,19.75,10.25,79.92,17,0,8.32,NE,1697671665
447,amga,60.8953,131.9608,25.99,52,99,7.0,RU,1697671666
448,conception bay south,47.4999,-52.9981,46.92,88,6,8.21,CA,1697671666
449,uttar char fasson,22.2332,90.7132,76.69,79,5,8.05,BD,1697671666
450,wanning,18.8003,110.3967,78.93,90,99,15.37,CN,1697671666
451,muisne,0.6,-80.0333,78.98,83,88,8.5,EC,1697671666
452,dzhangala,49.2167,50.3333,40.44,43,13,5.7,KZ,1697671666
453,changzhou,31.7833,119.9667,66.54,77,3,1.81,CN,1697671613
454,tukrah,32.5341,20.5791,75.24,40,36,7.49,LY,1697671666
455,tutoia,-2.7619,-42.2744,79.68,83,100,11.43,BR,1697671666
456,malpica,43.3228,-8.8105,66.36,74,32,20.85,ES,1697671667
457,markovo,57.3206,107.0881,31.42,85,94,5.84,RU,1697671667
458,letlhakane,-21.4167,25.5833,67.89,45,0,11.74,BW,1697671667
459,trevelin,-43.0858,-71.4639,65.68,66,0,7.43,AR,1697671667
460,san rafael del yuma,18.4299,-68.6739,83.77,82,35,5.97,DO,1697671667
461,tinghir,31.5157,-5.5343,70.29,36,39,6.33,MA,1697671667
462,yarmouth,41.7057,-70.2286,58.01,86,100,5.75,US,1697671667
463,christchurch,-43.5333,172.6333,66.54,66,39,4.61,NZ,1697671667
464,olinda,-8.0089,-34.8553,80.33,65,40,12.66,BR,1697671374
465,mili,6.0815,171.735,82.62,74,60,10.92,MH,1697671668
466,tupiza,-21.45,-65.7167,61.74,59,41,19.86,BO,1697671668
467,choibalsan,48.0667,114.5,33.51,57,99,13.96,MN,1697671668
468,berezovyy,51.6667,135.7,38.25,86,99,2.71,RU,1697671668
469,verkhnevilyuysk,63.4453,120.3167,20.95,81,95,8.01,RU,1697671668
470,lufilufi,-13.8745,-171.5986,82.18,81,100,22.03,WS,1697671668
471,lockwood,45.8191,-108.4149,74.41,33,40,17.27,US,1697671668
472,isangel,-19.55,169.2667,75.31,94,75,10.36,VU,1697671668
473,hotan,37.0997,79.9269,48.4,23,49,4.14,CN,1697671668
474,bich'vinta,43.1592,40.3378,53.78,91,100,3.44,GE,1697671669
475,harstad,68.799,16.5293,31.8,96,41,8.01,NO,1697671669
476,chibougamau,49.9168,-74.3659,46.02,66,75,17.27,CA,1697671669
477,kalemie,-5.9475,29.1947,72.28,72,70,4.99,CD,1697671669
478,dul'durga,50.6761,113.5931,26.26,85,45,7.74,RU,1697671669
479,tevriz,57.509,72.4042,46.13,73,100,7.23,RU,1697671669
480,talcahuano,-36.7167,-73.1167,56.88,77,20,5.75,CL,1697671669
481,polyarnyy,69.1989,33.4478,35.19,61,100,22.08,RU,1697671669
482,dunay,42.8803,132.3375,47.77,56,80,1.19,RU,1697671670
483,maputo,-25.9653,32.5892,67.68,94,75,5.75,MZ,1697671670
484,rosarito,32.3333,-117.0333,84.67,64,23,7.81,MX,1697671670
485,vuktyl,63.8567,57.3094,38.1,87,100,18.01,RU,1697671670
486,nova vicosa,-17.8919,-39.3719,76.23,75,3,12.55,BR,1697671670
487,kenora,49.8167,-94.4337,52.77,93,75,2.3,CA,1697671670
488,mumford,5.2618,-0.759,78.57,87,100,5.95,GH,1697671670
489,svetlyy,54.675,20.1347,49.15,62,100,8.14,RU,1697671670
490,playa del ingles,27.7567,-15.5787,73.4,81,32,5.01,ES,1697671670
491,cuenca,-2.8833,-78.9833,62.73,55,75,10.36,EC,1697671440
492,klyuchi,52.2667,79.1667,44.64,50,0,8.1,RU,1697671671
493,suva,-18.1416,178.4415,83.68,61,75,14.97,FJ,1697671671
494,belmonte,-15.8631,-38.8828,74.62,78,62,8.84,BR,1697671671
495,asau,46.4333,26.4,34.72,61,20,5.64,RO,1697671671
496,shimanovsk,52.0,127.7,33.67,58,100,13.38,RU,1697671671
497,rafina,38.0181,24.006,65.68,77,75,2.3,GR,1697671451
498,ad dawadimi,24.5077,44.3924,72.75,16,0,18.07,SA,1697671671
499,nyagan,62.1406,65.3936,40.41,66,7,12.41,RU,1697671671
500,kolpashevo,58.3131,82.9089,48.11,91,85,7.0,RU,1697671672
501,bel ombre,-4.6167,55.4167,80.44,78,40,11.5,SC,1697671672
502,china,25.7,-99.2333,84.25,32,53,6.38,MX,1697671672
503,poronaysk,49.2167,143.1167,52.29,90,100,17.27,RU,1697671672
504,kavaratti,10.5669,72.642,82.63,71,45,4.56,IN,1697671672
505,kroonstad,-27.6504,27.2349,61.36,39,11,3.96,ZA,1697671672
506,vilyuysk,63.7553,121.6247,18.0,87,97,8.99,RU,1697671672
507,frankfort,-27.2667,28.4833,59.54,42,0,2.06,ZA,1697671577
508,zeya,53.75,127.2667,35.49,70,100,12.19,RU,1697671672
509,chenaran,36.6455,59.1212,53.8,76,0,5.84,IR,1697671672
510,boa vista,2.8197,-60.6733,85.98,58,20,4.61,BR,1697671617
511,vargarda,58.0371,12.8091,38.93,71,100,6.55,SE,1697671673
512,al jawf,29.5,38.75,66.43,46,0,8.66,SA,1697671673
513,mata-utu,-13.2816,-176.1745,80.89,79,93,23.96,WF,1697671673
514,colonia,50.9333,6.95,53.89,90,75,12.66,DE,1697671601
515,walvis bay,-22.9575,14.5053,59.09,88,17,8.05,NA,1697671673
516,destin,30.3935,-86.4958,71.6,66,0,10.0,US,1697671548
517,bengkulu,-3.8004,102.2655,73.0,84,99,3.51,ID,1697671673
518,bikenibeu village,1.3673,173.1241,78.76,89,100,18.41,KI,1697671673
519,kourou,5.1552,-52.6478,77.05,87,69,11.21,GF,1697671674
520,midvagur,62.0511,-7.1939,47.23,93,100,33.38,FO,1697671674
521,arkhangel'sk,64.5401,40.5433,39.13,78,100,12.59,RU,1697671674
522,troitskoye,52.9821,84.6757,44.55,89,4,4.83,RU,1697671674
523,agat village,13.3886,144.6585,85.35,85,20,10.36,GU,1697671674
524,hasaki,35.7333,140.8333,68.4,61,43,13.29,JP,1697671674
525,guiuan,11.0333,125.7247,82.18,77,100,6.98,PH,1697671674
526,san luis de la loma,17.2706,-100.8939,75.11,94,100,1.5,MX,1697671674
527,ulladulla,-35.35,150.4667,68.77,51,1,8.43,AU,1697671674
528,teutonia,-29.4481,-51.8064,63.73,80,100,5.01,BR,1697671400
529,termas de rio hondo,-27.4998,-64.8604,59.88,81,95,9.06,AR,1697671675
530,bardai,11.65,7.2333,77.0,29,77,5.86,NG,1697671675
531,gaigeturi,33.4644,126.3183,68.05,73,40,4.61,KR,1697671675
532,sanya,18.2431,109.505,78.96,94,20,6.71,CN,1697671675
533,guerrero negro,27.9769,-114.0611,77.25,49,39,15.64,MX,1697671675
534,prado,-17.3411,-39.2208,76.03,76,9,11.79,BR,1697671675
535,zhigalovo,54.8097,105.1578,31.06,96,35,1.99,RU,1697671675
536,bogra,24.85,89.3667,72.23,81,0,5.91,BD,1697671675
537,mahavelona,-17.6848,49.5087,73.38,92,55,2.98,MG,1697671676
538,jiuquan,39.7432,98.5174,39.94,37,0,5.53,CN,1697671676
539,juneau,58.3019,-134.4197,52.41,100,100,5.1,US,1697671676
540,stephenville,32.2207,-98.2023,83.19,30,0,8.05,US,1697671532
541,ypsonas,34.6884,32.9574,74.37,69,20,17.27,CY,1697671676
542,kill devil hills,36.0307,-75.676,62.98,68,0,0.0,US,1697671676
543,gweru,-19.45,29.8167,57.11,84,0,10.36,ZW,1697671676
544,denison,33.7557,-96.5367,77.16,44,0,10.36,US,1697671492
545,mejit,10.2753,170.8646,82.56,78,45,17.56,MH,1697671676
546,sisauli,29.4167,77.4667,64.44,51,0,5.59,IN,1697671676
547,port macquarie,-31.4333,152.9167,68.9,59,100,1.68,AU,1697671664
548,young,-32.6833,-57.6333,58.37,58,83,12.26,UY,1697671677
549,aitape,-3.1374,142.3475,83.07,73,37,0.22,PG,1697671677
550,kingscliff,-28.2667,153.5667,73.2,46,100,16.11,AU,1697671677
551,sabha,27.0377,14.4283,76.84,18,14,8.01,LY,1697671677
552,haiku-pauwela,20.9219,-156.3051,84.22,51,20,23.02,US,1697671677
553,sarikei,2.1167,111.5167,73.98,99,100,1.68,MY,1697671677
554,san fernando de apure,7.8878,-67.4724,83.3,67,97,0.96,VE,1697671677
555,hailar,49.2,119.7,27.73,65,12,8.05,CN,1697671677
556,ambodifotatra,-16.9833,49.85,75.69,88,81,6.38,MG,1697671678
557,mandalgovi,45.7625,106.2708,32.4,47,0,4.59,MN,1697671678
558,neubrandenburg,53.5667,13.2667,42.58,77,100,12.08,DE,1697671678
559,cruzeiro do sul,-29.5128,-51.9853,64.49,76,100,5.23,BR,1697671678
560,taoudenni,22.6783,-3.9836,91.04,12,65,7.54,ML,1697671678
561,knyaze-volkonskoye,48.4642,135.4567,41.34,92,6,5.99,RU,1697671678
562,miri,4.4148,114.0089,77.14,94,40,0.0,MY,1697671678
563,bodaybo,57.8506,114.1933,33.48,82,100,5.99,RU,1697671679
564,flin flon,54.7682,-101.865,44.44,81,75,5.75,CA,1697671679
565,petatlan,17.5167,-101.2667,78.6,97,100,2.93,MX,1697671679
566,manismata,-2.4667,111.0333,73.15,99,98,1.21,ID,1697671679
567,kisarazu,35.3747,139.9225,73.18,64,32,10.47,JP,1697671679
568,kalevala,65.2,31.1667,35.1,99,92,5.99,RU,1697671679
569,bogale,16.2833,95.4,75.09,94,83,1.86,MM,1697671679
570,manadhoo,5.7667,73.3833,80.44,78,90,8.63,MV,1697671679
